$GPVTG,45.0,T,,M,10.00,N,18.52,K*5E
$GPVTG,45.0,T,,M,10.00,N,18.52,K*5E
$GPVTG,45.0,T,,M,10.00,N,18.52,K*5E
$GPVTG,45.0,T,,M,10.00,N,18.52,K*5E
$GPVTG,45.0,T,,M,10.00,N,18.52,K*5E
$GPVTG,45.0,T,,M,10.00,N,18.52,K*5E
$GPVTG,45.0,T,,M,10.00,N,18.52,K*5E
$GPVTG,45.0,T,,M,10.00,N,18.52,K*5E
$GPZDA,023917.97,24,11,2022,00,00*62
$GPGGA,023917.97,0608.274762,N,10340.519230,E,4,12,1.0,00000.000,M,00000.000,M,0.00,*43
$GPGLL,0608.274762,N,10340.519230,E,023917.97,V*15
$GPRMC,023917.97,V,0608.274762,N,10340.519230,E,0.00,0.0,241122,0.0,E*7F
$GPVTG,45.0,T,,M,10.00,N,18.52,K*5E
$GPVTG,45.0,T,,M,10.00,N,18.52,K*5E
$GPVTG,45.0,T,,M,10.00,N,18.52,K*5E
$GPVTG,45.0,T,,M,10.00,N,18.52,K*5E
$GPVTG,45.0,T,,M,10.00,N,18.52,K*5E
$GPVTG,45.0,T,,M,10.00,N,18.52,K*5E
$GPVTG,45.0,T,,M,10.00,N,18.52,K*5E
$GPVTG,45.0,T,,M,10.00,N,18.52,K*5E
$GPVTG,45.0,T,,M,10.00,N,18.52,K*5E
$GPZDA,023918.97,24,11,2022,00,00*6D
$GPGGA,023918.97,0608.276740,N,10340.521206,E,4,12,1.0,00000.000,M,00000.000,M,0.00,*40
$GPGLL,0608.276740,N,10340.521206,E,023918.97,V*16
$GPRMC,023918.97,V,0608.276740,N,10340.521206,E,0.00,0.0,241122,0.0,E*7C
$GPVTG,45.0,T,,M,10.00,N,18.52,K*5E
$GPVTG,45.0,T,,M,10.00,N,18.52,K*5E
$GPVTG,45.0,T,,M,10.00,N,18.52,K*5E
$GPVTG,45.0,T,,M,10.00,N,18.52,K*5E
$GPVTG,45.0,T,,M,10.00,N,18.52,K*5E
$GPVTG,45.0,T,,M,10.00,N,18.52,K*5E
$GPVTG,45.0,T,,M,10.00,N,18.52,K*5E
$GPVTG,45.0,T,,M,10.00,N,18.52,K*5E
$GPVTG,45.0,T,,M,10.00,N,18.52,K*5E
$GPZDA,023919.96,24,11,2022,00,00*6D
$GPGGA,023919.96,0608.278706,N,10340.523170,E,4,12,1.0,00000.000,M,00000.000,M,0.00,*4C
$GPGLL,0608.278706,N,10340.523170,E,023919.96,V*1A
$GPRMC,023919.96,V,0608.278706,N,10340.523170,E,0.00,0.0,241122,0.0,E*70
$GPVTG,45.0,T,,M,10.00,N,18.52,K*5E
$GPVTG,45.0,T,,M,10.00,N,18.52,K*5E
$GPVTG,45.0,T,,M,10.00,N,18.52,K*5E
$GPVTG,45.0,T,,M,10.00,N,18.52,K*5E
$GPVTG,45.0,T,,M,10.00,N,18.52,K*5E
$GPVTG,45.0,T,,M,10.00,N,18.52,K*5E
$GPVTG,45.0,T,,M,10.00,N,18.52,K*5E
$GPVTG,45.0,T,,M,10.00,N,18.52,K*5E
$GPVTG,45.0,T,,M,10.00,N,18.52,K*5E
$GPZDA,023920.97,24,11,2022,00,00*66
$GPGGA,023920.97,0608.280689,N,10340.525154,E,4,12,1.0,00000.000,M,00000.000,M,0.00,*46
$GPGLL,0608.280689,N,10340.525154,E,023920.97,V*10
$GPRMC,023920.97,V,0608.280689,N,10340.525154,E,0.00,0.0,241122,0.0,E*7A
$GPVTG,45.0,T,,M,10.00,N,18.52,K*5E
$GPVTG,45.0,T,,M,10.00,N,18.52,K*5E
$GPVTG,45.0,T,,M,10.00,N,18.52,K*5E
$GPVTG,45.0,T,,M,10.00,N,18.52,K*5E
$GPVTG,45.0,T,,M,10.00,N,18.52,K*5E
$GPVTG,45.0,T,,M,10.00,N,18.52,K*5E
$GPVTG,45.0,T,,M,10.00,N,18.52,K*5E
$GPVTG,45.0,T,,M,10.00,N,18.52,K*5E
$GPVTG,45.0,T,,M,10.00,N,18.52,K*5E
$GPZDA,023921.97,24,11,2022,00,00*67
$GPGGA,023921.97,0608.282662,N,10340.527122,E,4,12,1.0,00000.000,M,00000.000,M,0.00,*43
$GPGLL,0608.282662,N,10340.527122,E,023921.97,V*15
$GPRMC,023921.97,V,0608.282662,N,10340.527122,E,0.00,0.0,241122,0.0,E*7F
$GPVTG,45.0,T,,M,10.00,N,18.52,K*5E
$GPVTG,45.0,T,,M,10.00,N,18.52,K*5E
$GPVTG,45.0,T,,M,10.00,N,18.52,K*5E
$GPVTG,45.0,T,,M,10.00,N,18.52,K*5E
$GPVTG,45.0,T,,M,10.00,N,18.52,K*5E
$GPVTG,45.0,T,,M,10.00,N,18.52,K*5E
$GPVTG,45.0,T,,M,10.00,N,18.52,K*5E
$GPVTG,45.0,T,,M,10.00,N,18.52,K*5E
$GPVTG,45.0,T,,M,10.00,N,18.52,K*5E
$GPZDA,023922.97,24,11,2022,00,00*64
$GPGGA,023922.97,0608.284633,N,10340.529091,E,4,12,1.0,00000.000,M,00000.000,M,0.00,*45
$GPGLL,0608.284633,N,10340.529091,E,023922.97,V*13
$GPRMC,023922.97,V,0608.284633,N,10340.529091,E,0.00,0.0,241122,0.0,E*79
$GPVTG,45.0,T,,M,10.00,N,18.52,K*5E
$GPVTG,45.0,T,,M,10.00,N,18.52,K*5E
$GPVTG,45.0,T,,M,10.00,N,18.52,K*5E
$GPVTG,45.0,T,,M,10.00,N,18.52,K*5E
$GPVTG,45.0,T,,M,10.00,N,18.52,K*5E
$GPVTG,45.0,T,,M,10.00,N,18.52,K*5E
$GPVTG,45.0,T,,M,10.00,N,18.52,K*5E
$GPVTG,45.0,T,,M,10.00,N,18.52,K*5E
$GPVTG,45.0,T,,M,10.00,N,18.52,K*5E
$GPZDA,023923.97,24,11,2022,00,00*65
$GPGGA,023923.97,0608.286602,N,10340.531059,E,4,12,1.0,00000.000,M,00000.000,M,0.00,*49
$GPGLL,0608.286602,N,10340.531059,E,023923.97,V*1F
$GPRMC,023923.97,V,0608.286602,N,10340.531059,E,0.00,0.0,241122,0.0,E*75
$GPVTG,45.0,T,,M,10.00,N,18.52,K*5E
$GPVTG,45.0,T,,M,10.00,N,18.52,K*5E
$GPVTG,45.0,T,,M,10.00,N,18.52,K*5E
$GPVTG,45.0,T,,M,10.00,N,18.52,K*5E
$GPVTG,45.0,T,,M,10.00,N,18.52,K*5E
$GPVTG,45.0,T,,M,10.00,N,18.52,K*5E
$GPVTG,45.0,T,,M,10.00,N,18.52,K*5E
$GPVTG,45.0,T,,M,10.00,N,18.52,K*5E
$GPVTG,45.0,T,,M,10.00,N,18.52,K*5E
$GPZDA,023924.97,24,11,2022,00,00*62
$GPGGA,023924.97,0608.288580,N,10340.533035,E,4,12,1.0,00000.000,M,00000.000,M,0.00,*41
$GPGLL,0608.288580,N,10340.533035,E,023924.97,V*17
$GPRMC,023924.97,V,0608.288580,N,10340.533035,E,0.00,0.0,241122,0.0,E*7D
$GPVTG,45.0,T,,M,10.00,N,18.52,K*5E
$GPVTG,45.0,T,,M,10.00,N,18.52,K*5E
$GPVTG,45.0,T,,M,10.00,N,18.52,K*5E
$GPVTG,45.0,T,,M,10.00,N,18.52,K*5E
$GPVTG,45.0,T,,M,10.00,N,18.52,K*5E
$GPVTG,45.0,T,,M,10.00,N,18.52,K*5E
$GPVTG,45.0,T,,M,10.00,N,18.52,K*5E
$GPVTG,45.0,T,,M,10.00,N,18.52,K*5E
$GPVTG,45.0,T,,M,10.00,N,18.52,K*5E
$GPZDA,023925.97,24,11,2022,00,00*63
$GPGGA,023925.97,0608.290555,N,10340.535011,E,4,12,1.0,00000.000,M,00000.000,M,0.00,*41
$GPGLL,0608.290555,N,10340.535011,E,023925.97,V*17
$GPRMC,023925.97,V,0608.290555,N,10340.535011,E,0.00,0.0,241122,0.0,E*7D
$GPVTG,45.0,T,,M,10.00,N,18.52,K*5E
$GPVTG,45.0,T,,M,10.00,N,18.52,K*5E
$GPVTG,45.0,T,,M,10.00,N,18.52,K*5E
$GPVTG,45.0,T,,M,10.00,N,18.52,K*5E
$GPVTG,45.0,T,,M,10.00,N,18.52,K*5E
$GPVTG,45.0,T,,M,10.00,N,18.52,K*5E
$GPVTG,45.0,T,,M,10.00,N,18.52,K*5E
$GPVTG,45.0,T,,M,10.00,N,18.52,K*5E
$GPZDA,023926.97,24,11,2022,00,00*60
$GPGGA,023926.97,0608.292523,N,10340.536976,E,4,12,1.0,00000.000,M,00000.000,M,0.00,*4A
$GPGLL,0608.292523,N,10340.536976,E,023926.97,V*1C
$GPRMC,023926.97,V,0608.292523,N,10340.536976,E,0.00,0.0,241122,0.0,E*76
$GPVTG,45.0,T,,M,10.00,N,18.52,K*5E
$GPVTG,45.0,T,,M,10.00,N,18.52,K*5E
$GPVTG,45.0,T,,M,10.00,N,18.52,K*5E
$GPVTG,45.0,T,,M,10.00,N,18.52,K*5E
$GPVTG,45.0,T,,M,10.00,N,18.52,K*5E
$GPZDA,023927.97,24,11,2022,00,00*61
$GPGGA,023927.97,0608.294504,N,10340.538956,E,4,12,1.0,00000.000,M,00000.000,M,0.00,*44
$GPGLL,0608.294504,N,10340.538956,E,023927.97,V*12
$GPRMC,023927.97,V,0608.294504,N,10340.538956,E,0.00,0.0,241122,0.0,E*78
$GPVTG,45.0,T,,M,10.00,N,18.52,K*5E
$GPVTG,45.0,T,,M,10.00,N,18.52,K*5E
$GPVTG,45.0,T,,M,10.00,N,18.52,K*5E
$GPVTG,45.0,T,,M,10.00,N,18.52,K*5E
$GPVTG,45.0,T,,M,10.00,N,18.52,K*5E
$GPVTG,45.0,T,,M,10.00,N,18.52,K*5E
$GPVTG,45.0,T,,M,10.00,N,18.52,K*5E
$GPVTG,45.0,T,,M,10.00,N,18.52,K*5E
$GPVTG,45.0,T,,M,10.00,N,18.52,K*5E
$GPZDA,023928.97,24,11,2022,00,00*6E
$GPGGA,023928.97,0608.296478,N,10340.540928,E,4,12,1.0,00000.000,M,00000.000,M,0.00,*45
$GPGLL,0608.296478,N,10340.540928,E,023928.97,V*13
$GPRMC,023928.97,V,0608.296478,N,10340.540928,E,0.00,0.0,241122,0.0,E*79
$GPVTG,45.0,T,,M,10.00,N,18.52,K*5E
$GPVTG,45.0,T,,M,10.00,N,18.52,K*5E
$GPVTG,45.0,T,,M,10.00,N,18.52,K*5E
$GPVTG,45.0,T,,M,10.00,N,18.52,K*5E
$GPVTG,45.0,T,,M,10.00,N,18.52,K*5E
$GPVTG,45.0,T,,M,10.00,N,18.52,K*5E
$GPVTG,45.0,T,,M,10.00,N,18.52,K*5E
$GPVTG,45.0,T,,M,10.00,N,18.52,K*5E
$GPVTG,45.0,T,,M,10.00,N,18.52,K*5E
$GPZDA,023929.97,24,11,2022,00,00*6F
$GPGGA,023929.97,0608.298446,N,10340.542892,E,4,12,1.0,00000.000,M,00000.000,M,0.00,*45
$GPGLL,0608.298446,N,10340.542892,E,023929.97,V*13
$GPRMC,023929.97,V,0608.298446,N,10340.542892,E,0.00,0.0,241122,0.0,E*79
$GPVTG,45.0,T,,M,10.00,N,18.52,K*5E
$GPVTG,45.0,T,,M,10.00,N,18.52,K*5E
$GPVTG,45.0,T,,M,10.00,N,18.52,K*5E
$GPVTG,45.0,T,,M,10.00,N,18.52,K*5E
$GPVTG,45.0,T,,M,10.00,N,18.52,K*5E
$GPVTG,45.0,T,,M,10.00,N,18.52,K*5E
$GPVTG,45.0,T,,M,10.00,N,18.52,K*5E
$GPVTG,45.0,T,,M,10.00,N,18.52,K*5E
$GPVTG,45.0,T,,M,10.00,N,18.52,K*5E
$GPZDA,023930.97,24,11,2022,00,00*67
$GPGGA,023930.97,0608.300420,N,10340.544865,E,4,12,1.0,00000.000,M,00000.000,M,0.00,*43
$GPGLL,0608.300420,N,10340.544865,E,023930.97,V*15
$GPRMC,023930.97,V,0608.300420,N,10340.544865,E,0.00,0.0,241122,0.0,E*7F
$GPVTG,45.0,T,,M,10.00,N,18.52,K*5E
$GPVTG,45.0,T,,M,10.00,N,18.52,K*5E
$GPVTG,45.0,T,,M,10.00,N,18.52,K*5E
$GPVTG,45.0,T,,M,10.00,N,18.52,K*5E
$GPVTG,45.0,T,,M,10.00,N,18.52,K*5E
$GPVTG,45.0,T,,M,10.00,N,18.52,K*5E
$GPVTG,45.0,T,,M,10.00,N,18.52,K*5E
$GPVTG,45.0,T,,M,10.00,N,18.52,K*5E
$GPVTG,45.0,T,,M,10.00,N,18.52,K*5E
$GPZDA,023931.97,24,11,2022,00,00*66
$GPGGA,023931.97,0608.302400,N,10340.546844,E,4,12,1.0,00000.000,M,00000.000,M,0.00,*43
$GPGLL,0608.302400,N,10340.546844,E,023931.97,V*15
$GPRMC,023931.97,V,0608.302400,N,10340.546844,E,0.00,0.0,241122,0.0,E*7F
$GPVTG,45.0,T,,M,10.00,N,18.52,K*5E
$GPVTG,45.0,T,,M,10.00,N,18.52,K*5E
$GPVTG,45.0,T,,M,10.00,N,18.52,K*5E
$GPVTG,45.0,T,,M,10.00,N,18.52,K*5E
$GPVTG,45.0,T,,M,10.00,N,18.52,K*5E
$GPVTG,45.0,T,,M,10.00,N,18.52,K*5E
$GPVTG,45.0,T,,M,10.00,N,18.52,K*5E
$GPVTG,45.0,T,,M,10.00,N,18.52,K*5E
$GPVTG,45.0,T,,M,10.00,N,18.52,K*5E
$GPZDA,023932.97,24,11,2022,00,00*65
$GPGGA,023932.97,0608.304365,N,10340.548809,E,4,12,1.0,00000.000,M,00000.000,M,0.00,*45
$GPGLL,0608.304365,N,10340.548809,E,023932.97,V*13
$GPRMC,023932.97,V,0608.304365,N,10340.548809,E,0.00,0.0,241122,0.0,E*79
$GPVTG,45.0,T,,M,10.00,N,18.52,K*5E
$GPVTG,45.0,T,,M,10.00,N,18.52,K*5E
$GPVTG,45.0,T,,M,10.00,N,18.52,K*5E
$GPVTG,45.0,T,,M,10.00,N,18.52,K*5E
$GPVTG,45.0,T,,M,10.00,N,18.52,K*5E
$GPVTG,45.0,T,,M,10.00,N,18.52,K*5E
$GPVTG,45.0,T,,M,10.00,N,18.52,K*5E
$GPVTG,45.0,T,,M,10.00,N,18.52,K*5E
$GPVTG,45.0,T,,M,10.00,N,18.52,K*5E
$GPZDA,023933.97,24,11,2022,00,00*64
$GPGGA,023933.97,0608.306338,N,10340.550777,E,4,12,1.0,00000.000,M,00000.000,M,0.00,*41
$GPGLL,0608.306338,N,10340.550777,E,023933.97,V*17
$GPRMC,023933.97,V,0608.306338,N,10340.550777,E,0.00,0.0,241122,0.0,E*7D
$GPVTG,45.0,T,,M,10.00,N,18.52,K*5E
$GPVTG,45.0,T,,M,10.00,N,18.52,K*5E
$GPVTG,45.0,T,,M,10.00,N,18.52,K*5E
$GPVTG,45.0,T,,M,10.00,N,18.52,K*5E
$GPVTG,45.0,T,,M,10.00,N,18.52,K*5E
$GPVTG,45.0,T,,M,10.00,N,18.52,K*5E
$GPVTG,45.0,T,,M,10.00,N,18.52,K*5E
$GPVTG,45.0,T,,M,10.00,N,18.52,K*5E
$GPVTG,45.0,T,,M,10.00,N,18.52,K*5E
$GPZDA,023934.97,24,11,2022,00,00*63
$GPGGA,023934.97,0608.308318,N,10340.552757,E,4,12,1.0,00000.000,M,00000.000,M,0.00,*4A
$GPGLL,0608.308318,N,10340.552757,E,023934.97,V*1C
$GPRMC,023934.97,V,0608.308318,N,10340.552757,E,0.00,0.0,241122,0.0,E*76
$GPVTG,45.0,T,,M,10.00,N,18.52,K*5E
$GPVTG,45.0,T,,M,10.00,N,18.52,K*5E
$GPVTG,45.0,T,,M,10.00,N,18.52,K*5E
$GPVTG,45.0,T,,M,10.00,N,18.52,K*5E
$GPVTG,45.0,T,,M,10.00,N,18.52,K*5E
$GPVTG,45.0,T,,M,10.00,N,18.52,K*5E
$GPVTG,45.0,T,,M,10.00,N,18.52,K*5E
$GPVTG,45.0,T,,M,10.00,N,18.52,K*5E
$GPVTG,45.0,T,,M,10.00,N,18.52,K*5E
$GPZDA,023935.97,24,11,2022,00,00*62
$GPGGA,023935.97,0608.310286,N,10340.554722,E,4,12,1.0,00000.000,M,00000.000,M,0.00,*40
$GPGLL,0608.310286,N,10340.554722,E,023935.97,V*16
$GPRMC,023935.97,V,0608.310286,N,10340.554722,E,0.00,0.0,241122,0.0,E*7C
$GPVTG,45.0,T,,M,10.00,N,18.52,K*5E
$GPVTG,45.0,T,,M,10.00,N,18.52,K*5E
$GPVTG,45.0,T,,M,10.00,N,18.52,K*5E
$GPVTG,45.0,T,,M,10.00,N,18.52,K*5E
$GPVTG,45.0,T,,M,10.00,N,18.52,K*5E
$GPVTG,45.0,T,,M,10.00,N,18.52,K*5E
$GPVTG,45.0,T,,M,10.00,N,18.52,K*5E
$GPVTG,45.0,T,,M,10.00,N,18.52,K*5E
$GPVTG,45.0,T,,M,10.00,N,18.52,K*5E
$GPZDA,023936.97,24,11,2022,00,00*61
$GPGGA,023936.97,0608.312265,N,10340.556702,E,4,12,1.0,00000.000,M,00000.000,M,0.00,*4C
$GPGLL,0608.312265,N,10340.556702,E,023936.97,V*1A
$GPRMC,023936.97,V,0608.312265,N,10340.556702,E,0.00,0.0,241122,0.0,E*70
$GPVTG,45.0,T,,M,10.00,N,18.52,K*5E
$GPVTG,45.0,T,,M,10.00,N,18.52,K*5E
$GPVTG,45.0,T,,M,10.00,N,18.52,K*5E
$GPVTG,45.0,T,,M,10.00,N,18.52,K*5E
$GPVTG,45.0,T,,M,10.00,N,18.52,K*5E
$GPVTG,45.0,T,,M,10.00,N,18.52,K*5E
$GPVTG,45.0,T,,M,10.00,N,18.52,K*5E
$GPVTG,45.0,T,,M,10.00,N,18.52,K*5E
$GPVTG,45.0,T,,M,10.00,N,18.52,K*5E
$GPZDA,023937.97,24,11,2022,00,00*60
$GPGGA,023937.97,0608.314233,N,10340.558666,E,4,12,1.0,00000.000,M,00000.000,M,0.00,*45
$GPGLL,0608.314233,N,10340.558666,E,023937.97,V*13
$GPRMC,023937.97,V,0608.314233,N,10340.558666,E,0.00,0.0,241122,0.0,E*79
$GPVTG,45.0,T,,M,10.00,N,18.52,K*5E
$GPVTG,45.0,T,,M,10.00,N,18.52,K*5E
$GPVTG,45.0,T,,M,10.00,N,18.52,K*5E
$GPVTG,45.0,T,,M,10.00,N,18.52,K*5E
$GPVTG,45.0,T,,M,10.00,N,18.52,K*5E
$GPVTG,45.0,T,,M,10.00,N,18.52,K*5E
$GPVTG,45.0,T,,M,10.00,N,18.52,K*5E
$GPVTG,45.0,T,,M,10.00,N,18.52,K*5E
$GPVTG,45.0,T,,M,10.00,N,18.52,K*5E
$GPZDA,023938.97,24,11,2022,00,00*6F
$GPGGA,023938.97,0608.316207,N,10340.560638,E,4,12,1.0,00000.000,M,00000.000,M,0.00,*4F
$GPGLL,0608.316207,N,10340.560638,E,023938.97,V*19
$GPRMC,023938.97,V,0608.316207,N,10340.560638,E,0.00,0.0,241122,0.0,E*73
$GPVTG,45.0,T,,M,10.00,N,18.52,K*5E
$GPVTG,45.0,T,,M,10.00,N,18.52,K*5E
$GPVTG,45.0,T,,M,10.00,N,18.52,K*5E
$GPVTG,45.0,T,,M,10.00,N,18.52,K*5E
$GPVTG,45.0,T,,M,10.00,N,18.52,K*5E
$GPVTG,45.0,T,,M,10.00,N,18.52,K*5E
$GPVTG,45.0,T,,M,10.00,N,18.52,K*5E
$GPVTG,45.0,T,,M,10.00,N,18.52,K*5E
$GPVTG,45.0,T,,M,10.00,N,18.52,K*5E
$GPZDA,023939.97,24,11,2022,00,00*6E
$GPGGA,023939.97,0608.318189,N,10340.562618,E,4,12,1.0,00000.000,M,00000.000,M,0.00,*45
$GPGLL,0608.318189,N,10340.562618,E,023939.97,V*13
$GPRMC,023939.97,V,0608.318189,N,10340.562618,E,0.00,0.0,241122,0.0,E*79
$GPVTG,45.0,T,,M,10.00,N,18.52,K*5E
$GPVTG,45.0,T,,M,10.00,N,18.52,K*5E
$GPVTG,45.0,T,,M,10.00,N,18.52,K*5E
$GPVTG,45.0,T,,M,10.00,N,18.52,K*5E
$GPVTG,45.0,T,,M,10.00,N,18.52,K*5E
$GPVTG,45.0,T,,M,10.00,N,18.52,K*5E
$GPVTG,45.0,T,,M,10.00,N,18.52,K*5E
$GPVTG,45.0,T,,M,10.00,N,18.52,K*5E
$GPVTG,45.0,T,,M,10.00,N,18.52,K*5E
$GPZDA,023940.97,24,11,2022,00,00*60
$GPGGA,023940.97,0608.320156,N,10340.564583,E,4,12,1.0,00000.000,M,00000.000,M,0.00,*45
$GPGLL,0608.320156,N,10340.564583,E,023940.97,V*13
$GPRMC,023940.97,V,0608.320156,N,10340.564583,E,0.00,0.0,241122,0.0,E*79
$GPVTG,45.0,T,,M,10.00,N,18.52,K*5E
$GPVTG,45.0,T,,M,10.00,N,18.52,K*5E
$GPVTG,45.0,T,,M,10.00,N,18.52,K*5E
$GPVTG,45.0,T,,M,10.00,N,18.52,K*5E
$GPVTG,45.0,T,,M,10.00,N,18.52,K*5E
$GPVTG,45.0,T,,M,10.00,N,18.52,K*5E
$GPVTG,45.0,T,,M,10.00,N,18.52,K*5E
$GPVTG,45.0,T,,M,10.00,N,18.52,K*5E
$GPZDA,023941.97,24,11,2022,00,00*61
$GPGGA,023941.97,0608.322128,N,10340.566555,E,4,12,1.0,00000.000,M,00000.000,M,0.00,*46
$GPGLL,0608.322128,N,10340.566555,E,023941.97,V*10
$GPRMC,023941.97,V,0608.322128,N,10340.566555,E,0.00,0.0,241122,0.0,E*7A
$GPVTG,45.0,T,,M,10.00,N,18.52,K*5E
$GPVTG,45.0,T,,M,10.00,N,18.52,K*5E
$GPVTG,45.0,T,,M,10.00,N,18.52,K*5E
$GPVTG,45.0,T,,M,10.00,N,18.52,K*5E
$GPVTG,45.0,T,,M,10.00,N,18.52,K*5E
$GPVTG,45.0,T,,M,10.00,N,18.52,K*5E
$GPVTG,45.0,T,,M,10.00,N,18.52,K*5E
$GPVTG,45.0,T,,M,10.00,N,18.52,K*5E
$GPVTG,45.0,T,,M,10.00,N,18.52,K*5E
$GPZDA,023942.97,24,11,2022,00,00*62
$GPGGA,023942.97,0608.324103,N,10340.568527,E,4,12,1.0,00000.000,M,00000.000,M,0.00,*41
$GPGLL,0608.324103,N,10340.568527,E,023942.97,V*17
$GPRMC,023942.97,V,0608.324103,N,10340.568527,E,0.00,0.0,241122,0.0,E*7D
$GPVTG,45.0,T,,M,10.00,N,18.52,K*5E
$GPVTG,45.0,T,,M,10.00,N,18.52,K*5E
$GPVTG,45.0,T,,M,10.00,N,18.52,K*5E
$GPVTG,45.0,T,,M,10.00,N,18.52,K*5E
$GPVTG,45.0,T,,M,10.00,N,18.52,K*5E
$GPVTG,45.0,T,,M,10.00,N,18.52,K*5E
$GPVTG,45.0,T,,M,10.00,N,18.52,K*5E
$GPVTG,45.0,T,,M,10.00,N,18.52,K*5E
$GPVTG,45.0,T,,M,10.00,N,18.52,K*5E
$GPZDA,023943.97,24,11,2022,00,00*63
$GPGGA,023943.97,0608.326083,N,10340.570507,E,4,12,1.0,00000.000,M,00000.000,M,0.00,*40
$GPGLL,0608.326083,N,10340.570507,E,023943.97,V*16
$GPRMC,023943.97,V,0608.326083,N,10340.570507,E,0.00,0.0,241122,0.0,E*7C
$GPVTG,45.0,T,,M,10.00,N,18.52,K*5E
$GPVTG,45.0,T,,M,10.00,N,18.52,K*5E
$GPVTG,45.0,T,,M,10.00,N,18.52,K*5E
$GPVTG,45.0,T,,M,10.00,N,18.52,K*5E
$GPVTG,45.0,T,,M,10.00,N,18.52,K*5E
$GPVTG,45.0,T,,M,10.00,N,18.52,K*5E
$GPVTG,45.0,T,,M,10.00,N,18.52,K*5E
$GPVTG,45.0,T,,M,10.00,N,18.52,K*5E
$GPVTG,45.0,T,,M,10.00,N,18.52,K*5E
$GPZDA,023944.97,24,11,2022,00,00*64
$GPGGA,023944.97,0608.328049,N,10340.572472,E,4,12,1.0,00000.000,M,00000.000,M,0.00,*4E
$GPGLL,0608.328049,N,10340.572472,E,023944.97,V*18
$GPRMC,023944.97,V,0608.328049,N,10340.572472,E,0.00,0.0,241122,0.0,E*72
$GPVTG,45.0,T,,M,10.00,N,18.52,K*5E
$GPVTG,45.0,T,,M,10.00,N,18.52,K*5E
$GPVTG,45.0,T,,M,10.00,N,18.52,K*5E
$GPVTG,45.0,T,,M,10.00,N,18.52,K*5E
$GPVTG,45.0,T,,M,10.00,N,18.52,K*5E
$GPVTG,45.0,T,,M,10.00,N,18.52,K*5E
$GPVTG,45.0,T,,M,10.00,N,18.52,K*5E
$GPVTG,45.0,T,,M,10.00,N,18.52,K*5E
$GPVTG,45.0,T,,M,10.00,N,18.52,K*5E
$GPZDA,023945.97,24,11,2022,00,00*65
$GPGGA,023945.97,0608.330029,N,10340.574448,E,4,12,1.0,00000.000,M,00000.000,M,0.00,*4F
$GPGLL,0608.330029,N,10340.574448,E,023945.97,V*19
$GPRMC,023945.97,V,0608.330029,N,10340.574448,E,0.00,0.0,241122,0.0,E*73
$GPVTG,45.0,T,,M,10.00,N,18.52,K*5E
$GPVTG,45.0,T,,M,10.00,N,18.52,K*5E
$GPVTG,45.0,T,,M,10.00,N,18.52,K*5E
$GPVTG,45.0,T,,M,10.00,N,18.52,K*5E
$GPVTG,45.0,T,,M,10.00,N,18.52,K*5E
$GPVTG,45.0,T,,M,10.00,N,18.52,K*5E
$GPVTG,45.0,T,,M,10.00,N,18.52,K*5E
$GPVTG,45.0,T,,M,10.00,N,18.52,K*5E
$GPVTG,45.0,T,,M,10.00,N,18.52,K*5E
$GPZDA,023946.97,24,11,2022,00,00*66
$GPGGA,023946.97,0608.332000,N,10340.576416,E,4,12,1.0,00000.000,M,00000.000,M,0.00,*4C
$GPGLL,0608.332000,N,10340.576416,E,023946.97,V*1A
$GPRMC,023946.97,V,0608.332000,N,10340.576416,E,0.00,0.0,241122,0.0,E*70
$GPVTG,45.0,T,,M,10.00,N,18.52,K*5E
$GPVTG,45.0,T,,M,10.00,N,18.52,K*5E
$GPVTG,45.0,T,,M,10.00,N,18.52,K*5E
$GPVTG,45.0,T,,M,10.00,N,18.52,K*5E
$GPVTG,45.0,T,,M,10.00,N,18.52,K*5E
$GPVTG,45.0,T,,M,10.00,N,18.52,K*5E
$GPVTG,45.0,T,,M,10.00,N,18.52,K*5E
$GPVTG,45.0,T,,M,10.00,N,18.52,K*5E
$GPVTG,45.0,T,,M,10.00,N,18.52,K*5E
$GPZDA,023947.97,24,11,2022,00,00*67
$GPGGA,023947.97,0608.333974,N,10340.578388,E,4,12,1.0,00000.000,M,00000.000,M,0.00,*48
$GPGLL,0608.333974,N,10340.578388,E,023947.97,V*1E
$GPRMC,023947.97,V,0608.333974,N,10340.578388,E,0.00,0.0,241122,0.0,E*74
$GPVTG,45.0,T,,M,10.00,N,18.52,K*5E
$GPVTG,45.0,T,,M,10.00,N,18.52,K*5E
$GPVTG,45.0,T,,M,10.00,N,18.52,K*5E
$GPVTG,45.0,T,,M,10.00,N,18.52,K*5E
$GPVTG,45.0,T,,M,10.00,N,18.52,K*5E
$GPVTG,45.0,T,,M,10.00,N,18.52,K*5E
$GPVTG,45.0,T,,M,10.00,N,18.52,K*5E
$GPVTG,45.0,T,,M,10.00,N,18.52,K*5E
$GPVTG,45.0,T,,M,10.00,N,18.52,K*5E
$GPZDA,023948.97,24,11,2022,00,00*68
$GPGGA,023948.97,0608.335943,N,10340.580357,E,4,12,1.0,00000.000,M,00000.000,M,0.00,*40
$GPGLL,0608.335943,N,10340.580357,E,023948.97,V*16
$GPRMC,023948.97,V,0608.335943,N,10340.580357,E,0.00,0.0,241122,0.0,E*7C
$GPVTG,45.0,T,,M,10.00,N,18.52,K*5E
$GPVTG,45.0,T,,M,10.00,N,18.52,K*5E
$GPVTG,45.0,T,,M,10.00,N,18.52,K*5E
$GPVTG,45.0,T,,M,10.00,N,18.52,K*5E
$GPVTG,45.0,T,,M,10.00,N,18.52,K*5E
$GPVTG,45.0,T,,M,10.00,N,18.52,K*5E
$GPVTG,45.0,T,,M,10.00,N,18.52,K*5E
$GPVTG,45.0,T,,M,10.00,N,18.52,K*5E
$GPVTG,45.0,T,,M,10.00,N,18.52,K*5E
$GPZDA,023949.97,24,11,2022,00,00*69
$GPGGA,023949.97,0608.337923,N,10340.582336,E,4,12,1.0,00000.000,M,00000.000,M,0.00,*40
$GPGLL,0608.337923,N,10340.582336,E,023949.97,V*16
$GPRMC,023949.97,V,0608.337923,N,10340.582336,E,0.00,0.0,241122,0.0,E*7C
$GPVTG,45.0,T,,M,10.00,N,18.52,K*5E
$GPVTG,45.0,T,,M,10.00,N,18.52,K*5E
$GPVTG,45.0,T,,M,10.00,N,18.52,K*5E
$GPVTG,45.0,T,,M,10.00,N,18.52,K*5E
$GPVTG,45.0,T,,M,10.00,N,18.52,K*5E
$GPVTG,45.0,T,,M,10.00,N,18.52,K*5E
$GPVTG,45.0,T,,M,10.00,N,18.52,K*5E
$GPVTG,45.0,T,,M,10.00,N,18.52,K*5E
$GPVTG,45.0,T,,M,10.00,N,18.52,K*5E
$GPZDA,023950.97,24,11,2022,00,00*61
$GPGGA,023950.97,0608.339896,N,10340.584309,E,4,12,1.0,00000.000,M,00000.000,M,0.00,*43
$GPGLL,0608.339896,N,10340.584309,E,023950.97,V*15
$GPRMC,023950.97,V,0608.339896,N,10340.584309,E,0.00,0.0,241122,0.0,E*7F
$GPVTG,45.0,T,,M,10.00,N,18.52,K*5E
$GPVTG,45.0,T,,M,10.00,N,18.52,K*5E
$GPVTG,45.0,T,,M,10.00,N,18.52,K*5E
$GPVTG,45.0,T,,M,10.00,N,18.52,K*5E
$GPVTG,45.0,T,,M,10.00,N,18.52,K*5E
$GPVTG,45.0,T,,M,10.00,N,18.52,K*5E
$GPVTG,45.0,T,,M,10.00,N,18.52,K*5E
$GPVTG,45.0,T,,M,10.00,N,18.52,K*5E
$GPVTG,45.0,T,,M,10.00,N,18.52,K*5E
$GPZDA,023951.97,24,11,2022,00,00*60
$GPGGA,023951.97,0608.341866,N,10340.586277,E,4,12,1.0,00000.000,M,00000.000,M,0.00,*48
$GPGLL,0608.341866,N,10340.586277,E,023951.97,V*1E
$GPRMC,023951.97,V,0608.341866,N,10340.586277,E,0.00,0.0,241122,0.0,E*74
$GPVTG,45.0,T,,M,10.00,N,18.52,K*5E
$GPVTG,45.0,T,,M,10.00,N,18.52,K*5E
$GPVTG,45.0,T,,M,10.00,N,18.52,K*5E
$GPVTG,45.0,T,,M,10.00,N,18.52,K*5E
$GPVTG,45.0,T,,M,10.00,N,18.52,K*5E
$GPVTG,45.0,T,,M,10.00,N,18.52,K*5E
$GPVTG,45.0,T,,M,10.00,N,18.52,K*5E
$GPVTG,45.0,T,,M,10.00,N,18.52,K*5E
$GPVTG,45.0,T,,M,10.00,N,18.52,K*5E
$GPZDA,023952.97,24,11,2022,00,00*63
$GPGGA,023952.97,0608.343846,N,10340.588253,E,4,12,1.0,00000.000,M,00000.000,M,0.00,*43
$GPGLL,0608.343846,N,10340.588253,E,023952.97,V*15
$GPRMC,023952.97,V,0608.343846,N,10340.588253,E,0.00,0.0,241122,0.0,E*7F
$GPVTG,45.0,T,,M,10.00,N,18.52,K*5E
$GPVTG,45.0,T,,M,10.00,N,18.52,K*5E
$GPVTG,45.0,T,,M,10.00,N,18.52,K*5E
$GPVTG,45.0,T,,M,10.00,N,18.52,K*5E
$GPVTG,45.0,T,,M,10.00,N,18.52,K*5E
$GPVTG,45.0,T,,M,10.00,N,18.52,K*5E
$GPVTG,45.0,T,,M,10.00,N,18.52,K*5E
$GPVTG,45.0,T,,M,10.00,N,18.52,K*5E
$GPVTG,45.0,T,,M,10.00,N,18.52,K*5E
$GPZDA,023953.97,24,11,2022,00,00*62
$GPGGA,023953.97,0608.345818,N,10340.590221,E,4,12,1.0,00000.000,M,00000.000,M,0.00,*43
$GPGLL,0608.345818,N,10340.590221,E,023953.97,V*15
$GPRMC,023953.97,V,0608.345818,N,10340.590221,E,0.00,0.0,241122,0.0,E*7F
$GPVTG,45.6,T,,M,10.00,N,18.52,K*58
$GPVTG,45.9,T,,M,10.00,N,18.52,K*57
$GPVTG,46.2,T,,M,10.00,N,18.52,K*5F
$GPVTG,46.8,T,,M,10.00,N,18.52,K*55
$GPVTG,47.3,T,,M,10.00,N,18.52,K*5F
$GPVTG,47.9,T,,M,10.00,N,18.52,K*55
$GPVTG,48.4,T,,M,10.00,N,18.52,K*57
$GPVTG,49.0,T,,M,10.00,N,18.52,K*52
$GPVTG,49.5,T,,M,10.00,N,18.52,K*57
$GPZDA,023954.97,24,11,2022,00,00*65
$GPGGA,023954.97,0608.347707,N,10340.592262,E,4,12,1.0,00000.000,M,00000.000,M,0.00,*42
$GPGLL,0608.347707,N,10340.592262,E,023954.97,V*14
$GPRMC,023954.97,V,0608.347707,N,10340.592262,E,0.00,0.0,241122,0.0,E*7E
$GPVTG,50.6,T,,M,10.00,N,18.52,K*5C
$GPVTG,50.9,T,,M,10.00,N,18.52,K*53
$GPVTG,51.2,T,,M,10.00,N,18.52,K*59
$GPVTG,51.7,T,,M,10.00,N,18.52,K*5C
$GPVTG,52.3,T,,M,10.00,N,18.52,K*5B
$GPVTG,52.8,T,,M,10.00,N,18.52,K*50
$GPVTG,53.3,T,,M,10.00,N,18.52,K*5A
$GPVTG,53.9,T,,M,10.00,N,18.52,K*50
$GPVTG,54.5,T,,M,10.00,N,18.52,K*5B
$GPZDA,023955.97,24,11,2022,00,00*64
$GPGGA,023955.97,0608.349416,N,10340.594467,E,4,12,1.0,00000.000,M,00000.000,M,0.00,*4B
$GPGLL,0608.349416,N,10340.594467,E,023955.97,V*1D
$GPRMC,023955.97,V,0608.349416,N,10340.594467,E,0.00,0.0,241122,0.0,E*77
$GPVTG,55.6,T,,M,10.00,N,18.52,K*59
$GPVTG,56.1,T,,M,10.00,N,18.52,K*5D
$GPVTG,56.6,T,,M,10.00,N,18.52,K*5A
$GPVTG,57.2,T,,M,10.00,N,18.52,K*5F
$GPVTG,57.7,T,,M,10.00,N,18.52,K*5A
$GPVTG,58.3,T,,M,10.00,N,18.52,K*51
$GPVTG,58.8,T,,M,10.00,N,18.52,K*5A
$GPVTG,59.4,T,,M,10.00,N,18.52,K*57
$GPVTG,59.9,T,,M,10.00,N,18.52,K*5A
$GPZDA,023956.97,24,11,2022,00,00*67
$GPGGA,023956.97,0608.350931,N,10340.596817,E,4,12,1.0,00000.000,M,00000.000,M,0.00,*41
$GPGLL,0608.350931,N,10340.596817,E,023956.97,V*17
$GPRMC,023956.97,V,0608.350931,N,10340.596817,E,0.00,0.0,241122,0.0,E*7D
$GPVTG,60.8,T,,M,10.00,N,18.52,K*51
$GPVTG,61.1,T,,M,10.00,N,18.52,K*59
$GPVTG,61.6,T,,M,10.00,N,18.52,K*5E
$GPVTG,62.1,T,,M,10.00,N,18.52,K*5A
$GPVTG,62.6,T,,M,10.00,N,18.52,K*5D
$GPVTG,63.2,T,,M,10.00,N,18.52,K*58
$GPVTG,63.8,T,,M,10.00,N,18.52,K*52
$GPVTG,64.3,T,,M,10.00,N,18.52,K*5E
$GPVTG,64.8,T,,M,10.00,N,18.52,K*55
$GPZDA,023957.97,24,11,2022,00,00*66
$GPGGA,023957.97,0608.352229,N,10340.599281,E,4,12,1.0,00000.000,M,00000.000,M,0.00,*4A
$GPGLL,0608.352229,N,10340.599281,E,023957.97,V*1C
$GPRMC,023957.97,V,0608.352229,N,10340.599281,E,0.00,0.0,241122,0.0,E*76
$GPVTG,65.7,T,,M,10.00,N,18.52,K*5B
$GPVTG,66.1,T,,M,10.00,N,18.52,K*5E
$GPVTG,66.5,T,,M,10.00,N,18.52,K*5A
$GPVTG,67.0,T,,M,10.00,N,18.52,K*5E
$GPVTG,67.6,T,,M,10.00,N,18.52,K*58
$GPVTG,68.1,T,,M,10.00,N,18.52,K*50
$GPVTG,68.7,T,,M,10.00,N,18.52,K*56
$GPVTG,69.2,T,,M,10.00,N,18.52,K*52
$GPVTG,69.8,T,,M,10.00,N,18.52,K*58
$GPZDA,023958.97,24,11,2022,00,00*69
$GPGGA,023958.97,0608.353311,N,10340.601856,E,4,12,1.0,00000.000,M,00000.000,M,0.00,*4C
$GPGLL,0608.353311,N,10340.601856,E,023958.97,V*1A
$GPRMC,023958.97,V,0608.353311,N,10340.601856,E,0.00,0.0,241122,0.0,E*70
$GPVTG,70.6,T,,M,10.00,N,18.52,K*5E
$GPVTG,71.0,T,,M,10.00,N,18.52,K*59
$GPVTG,71.4,T,,M,10.00,N,18.52,K*5D
$GPVTG,71.9,T,,M,10.00,N,18.52,K*50
$GPVTG,72.5,T,,M,10.00,N,18.52,K*5F
$GPVTG,73.0,T,,M,10.00,N,18.52,K*5B
$GPVTG,73.6,T,,M,10.00,N,18.52,K*5D
$GPVTG,74.1,T,,M,10.00,N,18.52,K*5D
$GPVTG,74.7,T,,M,10.00,N,18.52,K*5B
$GPZDA,023959.97,24,11,2022,00,00*68
$GPGGA,023959.97,0608.354160,N,10340.604504,E,4,12,1.0,00000.000,M,00000.000,M,0.00,*41
$GPGLL,0608.354160,N,10340.604504,E,023959.97,V*17
$GPRMC,023959.97,V,0608.354160,N,10340.604504,E,0.00,0.0,241122,0.0,E*7D
$GPVTG,75.6,T,,M,10.00,N,18.52,K*5B
$GPVTG,75.9,T,,M,10.00,N,18.52,K*54
$GPVTG,76.3,T,,M,10.00,N,18.52,K*5D
$GPVTG,76.9,T,,M,10.00,N,18.52,K*57
$GPVTG,77.4,T,,M,10.00,N,18.52,K*5B
$GPVTG,78.0,T,,M,10.00,N,18.52,K*50
$GPVTG,78.5,T,,M,10.00,N,18.52,K*55
$GPVTG,79.0,T,,M,10.00,N,18.52,K*51
$GPVTG,79.6,T,,M,10.00,N,18.52,K*57
$GPZDA,024000.97,24,11,2022,00,00*6A
$GPGGA,024000.97,0608.354778,N,10340.607227,E,4,12,1.0,00000.000,M,00000.000,M,0.00,*49
$GPGLL,0608.354778,N,10340.607227,E,024000.97,V*1F
$GPRMC,024000.97,V,0608.354778,N,10340.607227,E,0.00,0.0,241122,0.0,E*75
$GPVTG,80.6,T,,M,10.00,N,18.52,K*51
$GPVTG,80.9,T,,M,10.00,N,18.52,K*5E
$GPVTG,81.2,T,,M,10.00,N,18.52,K*54
$GPVTG,81.8,T,,M,10.00,N,18.52,K*5E
$GPVTG,82.3,T,,M,10.00,N,18.52,K*56
$GPVTG,82.9,T,,M,10.00,N,18.52,K*5C
$GPVTG,83.4,T,,M,10.00,N,18.52,K*50
$GPVTG,84.0,T,,M,10.00,N,18.52,K*53
$GPVTG,84.5,T,,M,10.00,N,18.52,K*56
$GPZDA,024001.97,24,11,2022,00,00*6B
$GPGGA,024001.97,0608.355155,N,10340.609993,E,4,12,1.0,00000.000,M,00000.000,M,0.00,*4A
$GPGLL,0608.355155,N,10340.609993,E,024001.97,V*1C
$GPRMC,024001.97,V,0608.355155,N,10340.609993,E,0.00,0.0,241122,0.0,E*76
$GPVTG,85.6,T,,M,10.00,N,18.52,K*54
$GPVTG,85.9,T,,M,10.00,N,18.52,K*5B
$GPVTG,86.2,T,,M,10.00,N,18.52,K*53
$GPVTG,86.7,T,,M,10.00,N,18.52,K*56
$GPVTG,87.3,T,,M,10.00,N,18.52,K*53
$GPVTG,87.8,T,,M,10.00,N,18.52,K*58
$GPVTG,88.3,T,,M,10.00,N,18.52,K*5C
$GPVTG,88.9,T,,M,10.00,N,18.52,K*56
$GPVTG,89.4,T,,M,10.00,N,18.52,K*5A
$GPZDA,024002.97,24,11,2022,00,00*68
$GPGGA,024002.97,0608.355289,N,10340.612770,E,4,12,1.0,00000.000,M,00000.000,M,0.00,*42
$GPGLL,0608.355289,N,10340.612770,E,024002.97,V*14
$GPRMC,024002.97,V,0608.355289,N,10340.612770,E,0.00,0.0,241122,0.0,E*7E
$GPVTG,90.6,T,,M,10.00,N,18.52,K*50
$GPVTG,91.1,T,,M,10.00,N,18.52,K*56
$GPVTG,91.6,T,,M,10.00,N,18.52,K*51
$GPVTG,92.2,T,,M,10.00,N,18.52,K*56
$GPVTG,92.7,T,,M,10.00,N,18.52,K*53
$GPVTG,93.3,T,,M,10.00,N,18.52,K*56
$GPVTG,93.8,T,,M,10.00,N,18.52,K*5D
$GPVTG,94.4,T,,M,10.00,N,18.52,K*56
$GPVTG,94.9,T,,M,10.00,N,18.52,K*5B
$GPZDA,024003.97,24,11,2022,00,00*69
$GPGGA,024003.97,0608.355181,N,10340.615559,E,4,12,1.0,00000.000,M,00000.000,M,0.00,*46
$GPGLL,0608.355181,N,10340.615559,E,024003.97,V*10
$GPRMC,024003.97,V,0608.355181,N,10340.615559,E,0.00,0.0,241122,0.0,E*7A
$GPVTG,95.8,T,,M,10.00,N,18.52,K*5B
$GPVTG,96.1,T,,M,10.00,N,18.52,K*51
$GPVTG,96.5,T,,M,10.00,N,18.52,K*55
$GPVTG,97.1,T,,M,10.00,N,18.52,K*50
$GPVTG,97.6,T,,M,10.00,N,18.52,K*57
$GPVTG,98.2,T,,M,10.00,N,18.52,K*5C
$GPVTG,98.7,T,,M,10.00,N,18.52,K*59
$GPVTG,99.3,T,,M,10.00,N,18.52,K*5C
$GPVTG,99.8,T,,M,10.00,N,18.52,K*57
$GPZDA,024004.97,24,11,2022,00,00*6E
$GPGGA,024004.97,0608.354830,N,10340.618332,E,4,12,1.0,00000.000,M,00000.000,M,0.00,*45
$GPGLL,0608.354830,N,10340.618332,E,024004.97,V*13
$GPRMC,024004.97,V,0608.354830,N,10340.618332,E,0.00,0.0,241122,0.0,E*79
$GPVTG,100.7,T,,M,10.00,N,18.52,K*69
$GPVTG,101.1,T,,M,10.00,N,18.52,K*6E
$GPVTG,101.5,T,,M,10.00,N,18.52,K*6A
$GPVTG,102.0,T,,M,10.00,N,18.52,K*6C
$GPVTG,102.6,T,,M,10.00,N,18.52,K*6A
$GPVTG,103.1,T,,M,10.00,N,18.52,K*6C
$GPVTG,103.7,T,,M,10.00,N,18.52,K*6A
$GPVTG,104.2,T,,M,10.00,N,18.52,K*68
$GPVTG,104.8,T,,M,10.00,N,18.52,K*62
$GPZDA,024005.97,24,11,2022,00,00*6F
$GPGGA,024005.97,0608.354239,N,10340.621052,E,4,12,1.0,00000.000,M,00000.000,M,0.00,*48
$GPGLL,0608.354239,N,10340.621052,E,024005.97,V*1E
$GPRMC,024005.97,V,0608.354239,N,10340.621052,E,0.00,0.0,241122,0.0,E*74
$GPVTG,105.7,T,,M,10.00,N,18.52,K*6C
$GPVTG,106.0,T,,M,10.00,N,18.52,K*68
$GPVTG,106.4,T,,M,10.00,N,18.52,K*6C
$GPVTG,107.0,T,,M,10.00,N,18.52,K*69
$GPVTG,107.5,T,,M,10.00,N,18.52,K*6C
$GPVTG,108.1,T,,M,10.00,N,18.52,K*67
$GPVTG,108.6,T,,M,10.00,N,18.52,K*60
$GPVTG,109.1,T,,M,10.00,N,18.52,K*66
$GPVTG,109.7,T,,M,10.00,N,18.52,K*60
$GPZDA,024006.97,24,11,2022,00,00*6C
$GPGGA,024006.97,0608.353414,N,10340.623711,E,4,12,1.0,00000.000,M,00000.000,M,0.00,*47
$GPGLL,0608.353414,N,10340.623711,E,024006.97,V*11
$GPRMC,024006.97,V,0608.353414,N,10340.623711,E,0.00,0.0,241122,0.0,E*7B
$GPVTG,110.6,T,,M,10.00,N,18.52,K*69
$GPVTG,110.9,T,,M,10.00,N,18.52,K*66
$GPVTG,111.3,T,,M,10.00,N,18.52,K*6D
$GPVTG,111.9,T,,M,10.00,N,18.52,K*67
$GPVTG,112.4,T,,M,10.00,N,18.52,K*69
$GPVTG,113.0,T,,M,10.00,N,18.52,K*6C
$GPVTG,113.5,T,,M,10.00,N,18.52,K*69
$GPVTG,114.1,T,,M,10.00,N,18.52,K*6A
$GPVTG,114.6,T,,M,10.00,N,18.52,K*6D
$GPZDA,024007.97,24,11,2022,00,00*6D
$GPGGA,024007.97,0608.352354,N,10340.626297,E,4,12,1.0,00000.000,M,00000.000,M,0.00,*4A
$GPGLL,0608.352354,N,10340.626297,E,024007.97,V*1C
$GPRMC,024007.97,V,0608.352354,N,10340.626297,E,0.00,0.0,241122,0.0,E*76
$GPVTG,115.6,T,,M,10.00,N,18.52,K*6C
$GPVTG,115.9,T,,M,10.00,N,18.52,K*63
$GPVTG,116.2,T,,M,10.00,N,18.52,K*6B
$GPVTG,116.8,T,,M,10.00,N,18.52,K*61
$GPVTG,117.3,T,,M,10.00,N,18.52,K*6B
$GPVTG,117.9,T,,M,10.00,N,18.52,K*61
$GPVTG,118.4,T,,M,10.00,N,18.52,K*63
$GPVTG,119.0,T,,M,10.00,N,18.52,K*66
$GPVTG,119.5,T,,M,10.00,N,18.52,K*63
$GPZDA,024008.97,24,11,2022,00,00*62
$GPGGA,024008.97,0608.351081,N,10340.628769,E,4,12,1.0,00000.000,M,00000.000,M,0.00,*47
$GPGLL,0608.351081,N,10340.628769,E,024008.97,V*11
$GPRMC,024008.97,V,0608.351081,N,10340.628769,E,0.00,0.0,241122,0.0,E*7B
$GPVTG,120.6,T,,M,10.00,N,18.52,K*6A
$GPVTG,120.9,T,,M,10.00,N,18.52,K*65
$GPVTG,121.2,T,,M,10.00,N,18.52,K*6F
$GPVTG,121.7,T,,M,10.00,N,18.52,K*6A
$GPVTG,122.3,T,,M,10.00,N,18.52,K*6D
$GPVTG,122.8,T,,M,10.00,N,18.52,K*66
$GPVTG,123.4,T,,M,10.00,N,18.52,K*6B
$GPVTG,123.9,T,,M,10.00,N,18.52,K*66
$GPVTG,124.4,T,,M,10.00,N,18.52,K*6C
$GPZDA,024009.97,24,11,2022,00,00*63
$GPGGA,024009.97,0608.349591,N,10340.631130,E,4,12,1.0,00000.000,M,00000.000,M,0.00,*49
$GPGLL,0608.349591,N,10340.631130,E,024009.97,V*1F
$GPRMC,024009.97,V,0608.349591,N,10340.631130,E,0.00,0.0,241122,0.0,E*75
$GPVTG,125.6,T,,M,10.00,N,18.52,K*6F
$GPVTG,126.1,T,,M,10.00,N,18.52,K*6B
$GPVTG,126.6,T,,M,10.00,N,18.52,K*6C
$GPVTG,127.2,T,,M,10.00,N,18.52,K*69
$GPVTG,127.7,T,,M,10.00,N,18.52,K*6C
